station,geo_latitude,geo_longitude,available_bikes
Hoher Markt,48.210666,16.372983,19
Oper,48.202683,16.369702,1
Volksgarten,48.206516,16.3604,10
Stephansplatz U,48.207836,16.372111,3
Taborstraße U2,48.219522,16.382218,16
WU-Campus / Südportalstraße ,48.212856,16.407665,19
Klima Biennale Zentrale - Radetzky Platz,48.210682,16.390221,17
Bahngasse / mdw-University of Music and Performing Arts,48.201628,16.384459,6
Erdberg U3,48.190465,16.415318,27
Media Quarter Marx,48.188763,16.404503,10
Rennweg S,48.194261,16.386578,10
Rochusmarkt,48.203416,16.389789,11
Schwarzenbergplatz,48.198852,16.376962,3
Heumühlgasse,48.195304,16.363308,6
Margaretengürtel U4,48.188489,16.343992,25
Mittersteig,48.189735,16.361331,21
Ceija-Stojka-Platz,48.207702,16.342199,3
Volkstheater U,48.205994,16.356442,10
Zieglergasse U3,48.196724,16.343985,6
Berggasse,48.219182,16.366349,35
Frankhplatz,48.215164,16.355172,11
Friedensbrücke U4,48.226825,16.365311,21
Spittelau S U,48.235289,16.35875,28
Alfred-Böhm-Park,48.167276,16.386339,18
Altes Landgut U1,48.160985,16.383653,21
Bloch-Bauer-Promenade,48.179521,16.385926,1
Hauptbahnhof S U ,48.186287,16.375631,42
Keplerplatz U1,48.179192,16.375793,8
Absberggasse,48.172123,16.389296,6
Gasometer U3,48.185253,16.417358,21
Geiselbergstraße S,48.174951,16.406785,5
Simmering S U,48.169601,16.420754,6
Niederhofstraße U6,48.180233,16.330812,17
Hietzing U4,48.187739,16.302814,26
Westbahnhof S U,48.19681,16.338577,14
Richard-Wagner-Platz,48.210054,16.328049,17
Alser Straße U6,48.216588,16.3416,8
Währinger Straße U6,48.225482,16.349795,10
Gymnasiumstraße,48.236591,16.348719,11
Handelskai S U,48.24201,16.384797,24
Wallensteinplatz,48.229911,16.371579,9
Brünner Straße S,48.267376,16.403725,12
Floridsdorf S U,48.255621,16.400137,29
Kultursommer24 - Großfeldsiedlung U1,48.271948,16.447562,3
Siemensstraße S,48.27113,16.42081,13
Aspernstraße U2,48.223008,16.475255,13
Donauspital U2,48.219878,16.464588,17
Erzherzog-Karl-Straße S,48.229619,16.45357,12
Hausfeldstraße S U,48.233624,16.486825,11
Kagran U1,48.244086,16.433594,8
Maria-Tusch-Straße,48.224719,16.498557,22
Rennbahnweg U1,48.257535,16.44959,15
Schüttauplatz,48.225856,16.423761,11
Stadlau U 2,48.21978,16.44922,19
VIC Kaisermühlen U1,48.232362,16.415692,5
Kagraner Platz U1,48.251071,16.443794,17
Alterlaa U6,48.150204,16.317214,12
Bacherplatz,48.188009,16.355089,1
Margaretenplatz,48.191881,16.358912,3
Carl-Appel-Straße,48.169012,16.343611,7
Otto-Probst-Platz,48.15468,16.348017,5
Laaer Berg / Kurpark Nordeingang,48.151915,16.401945,2
Alaudagasse U1,48.15271,16.38247,3
Svetelskystraße,48.15403,16.46573,11
Weißenböckstraße,48.162067,16.42849,4
Rohrhofergasse,48.172432,16.428316,1
Zentralfriedhof 2. Tor,48.154665,16.442269,14
Simoningplatz,48.179565,16.420426,4
Hauptwerkstätte / Etrichstraße,48.14826,16.462393,1
Zippererstraße U3,48.179323,16.411067,4
Hetzendorf S,48.167527,16.316119,2
Auer-Welsbach-Straße,48.154273,16.30589,11
Pottendorfer Straße,48.17048,16.330518,1
Gatterhölzl,48.175409,16.320534,2
Speising S,48.17377,16.282425,0
Hasnerstraße / Hofferplatz,48.208195,16.332566,6
Nietzscheplatz,48.220455,16.306062,0
Wattgasse,48.217837,16.319961,4
Grinzing,48.255793,16.342947,0
Glanzing,48.24376,16.320682,0
Oberdöbling S,48.244386,16.344711,23
Kantergasse,48.278108,16.410042,1
Leopoldau S U,48.278087,16.451058,12
Josef-Baumann-Gasse / Vetmeduni,48.25227,16.430805,18
Fultonstraße,48.253115,16.414226,10
Hopfengasse,48.27059,16.392704,3
Jedlesee / Bellgasse,48.262127,16.387658,2
Audorfgasse,48.271593,16.383093,0
Strebersdorf S / Edmund-Hawranek-Platz,48.291646,16.386725,0
Bernoullistraße,48.239676,16.446051,6
Stavangergasse,48.213389,16.47486,6
Hans-Steger-Gasse,48.224906,16.456443,10
Hirschstetten S,48.232992,16.470367,16
Jakob-Bindel-Platz,48.246187,16.472797,14
Atzgersdorf S,48.146654,16.287907,4
Siebenhirten U,48.129845,16.310018,12
Erlaaerstraße U6,48.141515,16.316855,9
Perfektastraße U6,48.136398,16.313308,8
Hütteldorf / Hackinger Steg,48.196133,16.260386,1
Praterstern Ausstellungsstraße,48.21785,16.395483,11
Muthgasse,48.252055,16.369822,8
Liesing S,48.134253,16.283428,23
Aspern Nord S U,48.234002,16.504943,2
Seepark,48.226515,16.504506,7
Seestadt U,48.224865,16.507619,9
Schwedenplatz,48.211721,16.376628,25
Waldmüllerpark,48.18136,16.367618,0
Stubentor U,48.206812,16.380441,13
Landstraße - Wien Mitte S U,48.205847,16.385246,31
Praterstern S U,48.218454,16.390281,9
Rustengasse,48.190832,16.326461,7
Heiligenstadt S U,48.248272,16.36813,19
Breitensee S,48.198242,16.306901,2
Hütteldorf  S U,48.198076,16.261813,13
Rathaus U2,48.211441,16.356586,7
Hans-Mandl-Berufsschule,48.181161,16.338769,17
Dänenstraße / BOKU,48.23737,16.33448,41
Schloss Schönbrunn,48.187201,16.312659,52
Eslarngasse,48.196678,16.395204,22
Plößlgasse,48.194578,16.377147,5
Schönbornpark,48.213164,16.351095,12
Rossauer Lände U,48.222729,16.367425,13
Lazarettgasse,48.219312,16.352461,12
Edelsinnstraße,48.170578,16.310926,2
Karlsplatz U / TU Wien,48.199877,16.368227,21
Amerlingstraße,48.197306,16.350981,0
Albertgasse,48.210475,16.343998,3
Universitätsring,48.21192,16.360781,28
Herrengasse U,48.209724,16.366685,21
Sensengasse,48.220335,16.35638,12
Belgradplatz,48.173666,16.361403,6
Rathausplatz / Burgtheater,48.209923,16.360245,0
Arbeitergasse,48.18392,16.345801,29
Bauernfeldplatz / Palais Lichtenstein,48.221085,16.360193,16
Johannesgasse,48.203384,16.376708,10
Bischof-Faber-Platz,48.233868,16.325099,0
Am Schöpfwerk U,48.160951,16.324922,16
Alserbachstraße,48.225138,16.354893,8
Petrusgasse,48.192988,16.398459,35
Wassergasse,48.199234,16.394335,14
Löwengasse,48.2057,16.395998,10
Kardinal-Nagl-Platz U,48.197069,16.400874,5
Kärntner Ring,48.202161,16.3713,4
Schottenring U,48.215972,16.372194,16
Strozzigasse,48.207744,16.349122,0
Yppengasse,48.214561,16.335624,23
Stefan-Fadinger-Platz,48.168439,16.354862,1
Brünnlbadgasse,48.215262,16.346523,11
Obere Augartenstraße,48.223,16.374752,18
Marschallplatz,48.165635,16.303146,16
Ober St. Veit U,48.192296,16.274813,34
Auf der Schmelz,48.203673,16.316414,14
Grimmgasse,48.186805,16.327679,20
Parhamerplatz,48.216137,16.328093,14
Kendlerstraße,48.20359,16.30899,0
Dornerplatz,48.221223,16.33459,13
Hernals S,48.22321,16.315256,14
Schmelzbrücke,48.19623,16.330241,12
Michelbeuern-AKH U,48.221804,16.343735,26
Johann-Nepomuk-Vogl-Platz,48.223756,16.337543,6
Mayerhofgasse,48.192892,16.367069,5
Westbahnstraße / Schottenfeldgasse,48.201942,16.343241,6
Vorgartenstraße U,48.223192,16.399795,6
Krieau U,48.214384,16.414663,6
Ottakring S U,48.211841,16.311806,21
Hartmanngasse ,48.187123,16.363965,3
Georg-Ehrlich-Weg,48.261666,16.440139,6
Messe-Prater U2,48.217295,16.406163,30
Loquaipark,48.194597,16.349121,1
Rosensteingasse,48.21955,16.326586,10
Gumpendorfer Gürtel,48.18934,16.338321,34
Burggasse-Stadthalle U,48.203657,16.337419,14
Urban-Loritz-Platz,48.201034,16.337727,24
Hanusch Krankenhaus,48.19853,16.29393,16
Westbahnhof S U / Gerstnerstraße,48.195315,16.337344,25
Wieningerplatz,48.194063,16.31846,17
Markgraf-Rüdiger Straße,48.202473,16.329897,21
Plunkergasse,48.199892,16.327151,14
Selzergasse,48.196802,16.323095,11
Westbahnhof S U / Felberstraße,48.197958,16.3377,29
Kundratstraße,48.176146,16.355224,0
Arthaberplatz,48.173447,16.371831,17
Karmeliterplatz,48.215683,16.379649,15
Fröbelgasse,48.205827,16.330869,4
Reumannplatz U,48.172937,16.378663,23
Brestelgasse,48.214001,16.330753,9
Thaliastraße U,48.207995,16.337984,15
Nussdorfer Straße U,48.231717,16.353124,12
Elterleinplatz,48.218034,16.332358,11
Canisiusgasse,48.229011,16.354359,6
Palffygasse,48.217217,16.337131,24
Gersthof S,48.231029,16.329505,27
Reinprechtsdorfer Brücke,48.189633,16.351143,16
Siebensternplatz,48.202223,16.352486,3
Siebenbrunnenplatz,48.184975,16.352986,0
Rosensteingasse / Blumengasse,48.222824,16.328474,15
Schottenring U /Herminengasse,48.217784,16.373083,1
Josefstädter Straße U,48.212106,16.33912,4
Friedrich-Engels-Platz,48.244111,16.379304,22
Dresdner Straße U,48.237487,16.380363,22
Jägerstraße U,48.235062,16.369919,20
Kultursommer24 - Traisengasse S,48.233821,16.383263,9
Kettenbrückengasse U ,48.196328,16.357468,6
Aumannplatz,48.228561,16.335125,11
Längenfeldgasse U,48.18424,16.333886,30
Althanstraße,48.228936,16.3596,19
Schottentor U,48.214558,16.361492,37
Neubaugasse U,48.198527,16.35093,1
Museumsquartier U2,48.202344,16.361117,20
Johnstrasse U,48.19834,16.318975,12
Turnergasse,48.193083,16.334103,7
Kutschkergasse,48.225707,16.344196,11
Stadion U,48.210893,16.420795,0
Brückengasse,48.19126,16.347918,1
Schuhmeierplatz,48.21069,16.318802,22
Schönbrunn U,48.185845,16.319898,15
Hermesstraße / Oscar-Straus-Park ,48.167976,16.282246,29
Modecenterstraße / The Marks,48.184348,16.413837,11
Am Langen Felde,48.250336,16.450206,0
eLastenräder- Modecenterstraße / The Marks,48.184929,16.413964,1
Pilgramgasse U,48.192945,16.354936,2
eLastenräder - Am langen Felde,48.250224,16.45065,0
eLastenräder - Bruno-Marek-Allee 6,48.227914,16.391516,6
eLastenräder - Am Tabor 23,48.224108,16.391916,3
Franz-Josef Bahnhof,48.225991,16.360327,17
Siebenbrunnenfeldgasse,48.18142,16.352644,0
Klima Biennale - Nordwestbahn-Areal,48.233016,16.377393,11
Nussbaumallee / Campus Wiener Netze,48.181554,16.42316,8
